__time,/joint_state/cranex7_j0/effort,/joint_state/cranex7_j0/position,/joint_state/cranex7_j0/velocity,/joint_state/cranex7_j1/effort,/joint_state/cranex7_j1/position,/joint_state/cranex7_j1/velocity,/joint_state/cranex7_j2/effort,/joint_state/cranex7_j2/position,/joint_state/cranex7_j2/velocity,/joint_state/cranex7_j3/effort,/joint_state/cranex7_j3/position,/joint_state/cranex7_j3/velocity,/joint_state/cranex7_j4/effort,/joint_state/cranex7_j4/position,/joint_state/cranex7_j4/velocity,/joint_state/cranex7_j5/effort,/joint_state/cranex7_j5/position,/joint_state/cranex7_j5/velocity,/joint_state/cranex7_j6/effort,/joint_state/cranex7_j6/position,/joint_state/cranex7_j6/velocity,/joint_state/cranex7_j7/effort,/joint_state/cranex7_j7/position,/joint_state/cranex7_j7/velocity,/joint_state/header/stamp
1697017231.724830,-0.012470302,-0.006135923,0.000000000,0.631820475,1.560058459,0.000000000,-0.006235151,-0.006135923,0.000000000,1.465260485,-1.052310819,0.000000000,0.000000000,-0.009203885,0.000000000,0.006235151,-0.042951462,0.000000000,-0.037410906,-0.110446617,0.000000000,0.000000000,-0.001533981,0.000000000,1697017231.724601746
1697017231.772807,-0.024940604,-0.006135923,0.000000000,0.631820475,1.560058459,0.000000000,0.000000000,-0.007669904,0.000000000,1.465260485,-1.052310819,0.000000000,0.000000000,-0.009203885,0.000000000,-0.006235151,-0.044485443,0.000000000,0.000000000,-0.110446617,0.000000000,0.000000000,-0.001533981,0.000000000,1697017231.772563934
1697017231.820715,-0.012470302,-0.006135923,0.000000000,0.631820475,1.560058459,0.000000000,0.000000000,-0.006135923,0.000000000,1.471495636,-1.052310819,0.000000000,0.000000000,-0.009203885,0.000000000,-0.012470302,-0.044485443,0.000000000,-0.018705453,-0.110446617,0.000000000,0.000000000,-0.001533981,0.000000000,1697017231.820517540
1697017231.868726,-0.012470302,-0.006135923,0.000000000,0.631820475,1.560058459,0.000000000,0.000000000,-0.006135923,0.000000000,1.465260485,-1.052310819,0.000000000,0.000000000,-0.009203885,0.000000000,-0.012470302,-0.044485443,0.000000000,-0.006235151,-0.111980597,0.000000000,0.000000000,-0.001533981,0.000000000,1697017231.868490458
1697017231.916680,-0.018705453,-0.006135923,0.000000000,0.623396202,1.560058459,0.000000000,0.000000000,-0.006135923,0.000000000,1.465260485,-1.052310819,0.000000000,0.000000000,-0.009203885,0.000000000,0.000000000,-0.042951462,0.000000000,-0.018705453,-0.111980597,0.000000000,0.000000000,-0.001533981,0.000000000,1697017231.916533709
1697017231.964692,-0.012470302,-0.006135923,0.000000000,0.623396202,1.560058459,0.000000000,0.000000000,-0.004601942,0.000000000,1.465260485,-1.052310819,0.000000000,0.000000000,-0.009203885,0.000000000,-0.006235151,-0.044485443,0.000000000,0.000000000,-0.111980597,0.000000000,0.000000000,-0.001533981,0.000000000,1697017231.964534283
1697017232.012713,-0.018705453,-0.006135923,0.000000000,0.623396202,1.560058459,0.000000000,-0.024940604,-0.004601942,0.000000000,1.465260485,-1.052310819,0.000000000,0.000000000,-0.009203885,0.000000000,0.000000000,-0.046019424,0.000000000,-0.037410906,-0.115048559,0.000000000,0.000000000,0.000000000,0.000000000,1697017232.012498617
1697017232.060747,-0.018705453,-0.006135923,0.000000000,0.623396202,1.560058459,0.000000000,-0.031175755,-0.006135923,0.000000000,1.465260485,-1.052310819,0.000000000,0.000000000,-0.009203885,0.000000000,0.000000000,-0.046019424,0.000000000,-0.006235151,-0.113514578,0.000000000,0.000000000,-0.001533981,0.000000000,1697017232.060531855
1697017232.108782,-0.006235151,-0.006135923,0.000000000,0.631820475,1.560058459,0.000000000,0.000000000,-0.006135923,0.000000000,1.465260485,-1.052310819,0.000000000,0.000000000,-0.009203885,0.000000000,0.000000000,-0.046019424,0.000000000,-0.018705453,-0.116582540,0.000000000,0.000000000,-0.001533981,0.000000000,1697017232.108586311
1697017232.156670,-0.018705453,-0.006135923,0.000000000,0.631820475,1.560058459,0.000000000,-0.006235151,-0.006135923,0.000000000,1.465260485,-1.052310819,0.000000000,0.000000000,-0.009203885,0.000000000,-0.006235151,-0.046019424,0.000000000,0.000000000,-0.115048559,0.000000000,0.000000000,-0.001533981,0.000000000,1697017232.156463623
1697017232.204597,-0.024940604,-0.006135923,0.000000000,0.623396202,1.560058459,0.000000000,-0.031175755,-0.006135923,0.000000000,1.465260485,-1.052310819,0.000000000,0.000000000,-0.009203885,0.000000000,-0.012470302,-0.047553404,0.000000000,-0.024940604,-0.118116521,0.000000000,0.000000000,-0.001533981,0.000000000,1697017232.204439163
1697017232.252659,-0.012470302,-0.006135923,0.000000000,0.623396202,1.560058459,0.000000000,-0.012470302,-0.004601942,0.000000000,1.465260485,-1.052310819,0.000000000,0.000000000,-0.009203885,0.000000000,0.000000000,-0.047553404,0.000000000,0.000000000,-0.118116521,0.000000000,0.000000000,-0.001533981,0.000000000,1697017232.252451420
1697017232.300619,-0.024940604,-0.006135923,0.000000000,0.631820475,1.560058459,0.000000000,-0.018705453,-0.004601942,0.000000000,1.465260485,-1.052310819,0.000000000,0.000000000,-0.009203885,0.000000000,-0.006235151,-0.047553404,0.000000000,-0.018705453,-0.119650501,0.000000000,0.000000000,-0.001533981,0.000000000,1697017232.300455093
1697017232.348752,-0.024940604,-0.006135923,0.000000000,0.631820475,1.560058459,0.000000000,-0.006235151,-0.004601942,0.000000000,1.465260485,-1.052310819,0.000000000,0.000000000,-0.009203885,0.000000000,0.000000000,-0.046019424,0.000000000,-0.018705453,-0.119650501,0.000000000,0.000000000,-0.001533981,0.000000000,1697017232.348513842
1697017232.396828,-0.018705453,-0.006135923,0.000000000,0.623396202,1.560058459,0.000000000,0.000000000,-0.006135923,0.000000000,1.465260485,-1.052310819,0.000000000,0.000000000,-0.009203885,0.000000000,0.000000000,-0.047553404,0.000000000,-0.012470302,-0.121184482,0.000000000,0.000000000,-0.001533981,0.000000000,1697017232.396570683
1697017232.444738,-0.018705453,-0.006135923,0.000000000,0.623396202,1.560058459,0.000000000,-0.006235151,-0.006135923,0.000000000,1.465260485,-1.052310819,0.000000000,0.000000000,-0.009203885,0.000000000,0.000000000,-0.049087385,-0.023980824,0.000000000,-0.121184482,0.000000000,0.000000000,0.000000000,0.000000000,1697017232.444516659
1697017232.492769,-0.018705453,-0.006135923,0.000000000,0.623396202,1.560058459,0.000000000,0.000000000,-0.006135923,0.000000000,1.502671391,-1.052310819,0.000000000,0.000000000,-0.010737866,0.000000000,0.000000000,-0.049087385,0.000000000,-0.024940604,-0.122718463,0.000000000,0.000000000,0.000000000,0.000000000,1697017232.492501259
1697017232.540738,-0.018705453,-0.006135923,0.000000000,0.623396202,1.560058459,0.000000000,-0.006235151,-0.006135923,0.000000000,1.502671391,-1.052310819,0.000000000,0.000000000,-0.010737866,0.000000000,-0.006235151,-0.049087385,0.000000000,-0.018705453,-0.122718463,0.000000000,0.000000000,0.000000000,0.000000000,1697017232.540482521
1697017232.588741,-0.018705453,-0.006135923,0.000000000,0.623396202,1.560058459,0.000000000,-0.012470302,-0.006135923,0.000000000,1.502671391,-1.052310819,0.000000000,0.000000000,-0.010737866,0.000000000,0.000000000,-0.049087385,0.000000000,-0.024940604,-0.124252444,0.000000000,0.000000000,-0.001533981,0.000000000,1697017232.588407755
1697017232.636724,-0.006235151,-0.006135923,0.000000000,0.623396202,1.560058459,0.000000000,-0.018705453,-0.006135923,0.000000000,1.502671391,-1.052310819,0.000000000,0.000000000,-0.010737866,0.000000000,-0.006235151,-0.050621366,0.000000000,-0.024940604,-0.124252444,0.000000000,0.000000000,-0.001533981,0.000000000,1697017232.636437178
1697017232.684675,-0.018705453,-0.006135923,0.000000000,0.623396202,1.560058459,0.000000000,-0.018705453,-0.004601942,0.000000000,1.502671391,-1.052310819,0.000000000,0.000000000,-0.010737866,0.000000000,-0.006235151,-0.050621366,0.000000000,-0.024940604,-0.125786424,0.000000000,0.000000000,-0.001533981,0.000000000,1697017232.684406996
1697017232.732699,-0.012470302,-0.006135923,0.000000000,0.623396202,1.560058459,0.000000000,0.000000000,-0.006135923,0.000000000,1.502671391,-1.052310819,0.000000000,0.000000000,-0.010737866,0.000000000,-0.006235151,-0.050621366,0.000000000,-0.012470302,-0.125786424,0.000000000,0.000000000,0.000000000,0.000000000,1697017232.732407570
1697017232.780722,-0.012470302,-0.006135923,0.000000000,0.631820475,1.560058459,0.000000000,-0.018705453,-0.004601942,0.000000000,1.502671391,-1.052310819,0.000000000,0.000000000,-0.010737866,0.000000000,-0.012470302,-0.050621366,0.000000000,-0.018705453,-0.127320405,0.000000000,0.000000000,-0.001533981,0.000000000,1697017232.780378342
1697017232.828748,-0.012470302,-0.006135923,0.000000000,0.623396202,1.560058459,0.000000000,0.000000000,-0.006135923,0.000000000,1.502671391,-1.052310819,0.000000000,0.000000000,-0.010737866,0.000000000,0.000000000,-0.050621366,0.000000000,0.000000000,-0.127320405,0.000000000,0.000000000,-0.001533981,0.000000000,1697017232.828419447
1697017232.876600,-0.006235151,-0.006135923,0.000000000,0.623396202,1.560058459,0.000000000,-0.006235151,-0.006135923,0.000000000,1.502671391,-1.052310819,0.000000000,0.000000000,-0.010737866,0.000000000,-0.006235151,-0.052155347,0.000000000,-0.012470302,-0.128854386,0.000000000,0.000000000,-0.001533981,0.000000000,1697017232.876398802
1697017232.924678,-0.012470302,-0.006135923,0.000000000,0.623396202,1.560058459,0.000000000,-0.024940604,-0.006135923,0.000000000,1.502671391,-1.052310819,0.000000000,0.000000000,-0.010737866,0.000000000,-0.006235151,-0.052155347,0.000000000,-0.006235151,-0.128854386,0.000000000,0.000000000,-0.001533981,0.000000000,1697017232.924404621
1697017232.972690,-0.012470302,-0.006135923,0.000000000,0.623396202,1.560058459,0.000000000,0.000000000,-0.006135923,0.000000000,1.502671391,-1.052310819,0.000000000,0.000000000,-0.010737866,0.000000000,0.000000000,-0.052155347,0.000000000,0.000000000,-0.130388367,0.000000000,0.000000000,-0.001533981,0.000000000,1697017232.972386837
1697017233.020697,-0.012470302,-0.006135923,0.000000000,0.505456380,1.560058459,0.000000000,0.000000000,-0.006135923,0.000000000,1.502671391,-1.052310819,0.000000000,0.000000000,-0.010737866,0.000000000,0.000000000,-0.052155347,0.000000000,-0.024940604,-0.131922348,-0.023980824,0.000000000,0.000000000,0.000000000,1697017233.020404816
1697017233.068803,-0.006235151,-0.006135923,0.000000000,0.497032107,1.560058459,0.000000000,0.000000000,-0.006135923,0.000000000,1.502671391,-1.052310819,0.000000000,0.000000000,-0.009203885,0.000000000,0.000000000,-0.052155347,0.000000000,0.000000000,-0.131922348,0.000000000,0.000000000,-0.001533981,0.000000000,1697017233.068458796
1697017233.116684,-0.006235151,-0.006135923,0.000000000,0.497032107,1.560058459,0.000000000,-0.018705453,-0.006135923,0.000000000,1.502671391,-1.052310819,0.000000000,0.000000000,-0.010737866,0.000000000,-0.012470302,-0.053689328,0.000000000,-0.043646057,-0.131922348,0.000000000,0.000000000,-0.001533981,0.000000000,1697017233.116477489
1697017233.164744,-0.012470302,-0.006135923,0.000000000,0.497032107,1.560058459,0.000000000,-0.006235151,-0.006135923,0.000000000,1.502671391,-1.052310819,0.000000000,0.000000000,-0.010737866,0.000000000,0.000000000,-0.053689328,0.000000000,-0.012470302,-0.133456328,0.000000000,0.000000000,-0.001533981,0.000000000,1697017233.164491892
1697017233.212877,-0.018705453,-0.006135923,0.000000000,0.497032107,1.560058459,0.000000000,0.000000000,-0.006135923,0.000000000,1.502671391,-1.052310819,0.000000000,0.000000000,-0.010737866,0.000000000,0.000000000,-0.053689328,0.000000000,-0.018705453,-0.134990309,0.000000000,0.000000000,-0.001533981,0.000000000,1697017233.212604761
1697017233.260767,-0.006235151,-0.006135923,0.000000000,0.497032107,1.561592440,0.000000000,0.000000000,-0.004601942,0.000000000,1.502671391,-1.052310819,0.000000000,0.000000000,-0.010737866,0.000000000,0.000000000,-0.053689328,0.000000000,-0.012470302,-0.134990309,0.000000000,0.000000000,0.000000000,0.000000000,1697017233.260490894
1697017233.308689,-0.018705453,-0.006135923,0.000000000,0.471759288,1.560058459,0.000000000,-0.012470302,-0.004601942,0.000000000,1.502671391,-1.052310819,0.000000000,0.000000000,-0.010737866,0.000000000,0.000000000,-0.055223308,0.000000000,-0.018705453,-0.136524290,0.000000000,0.000000000,-0.001533981,0.000000000,1697017233.308487415
1697017233.356773,-0.018705453,-0.006135923,0.000000000,0.488607834,1.560058459,0.000000000,-0.006235151,-0.004601942,0.000000000,1.502671391,-1.052310819,0.000000000,0.000000000,-0.010737866,0.000000000,-0.006235151,-0.055223308,0.000000000,-0.012470302,-0.134990309,0.000000000,0.000000000,-0.001533981,0.000000000,1697017233.356486320
1697017233.404634,-0.012470302,-0.006135923,0.000000000,0.497032107,1.560058459,0.000000000,-0.012470302,-0.006135923,0.000000000,1.502671391,-1.052310819,0.000000000,0.000000000,-0.010737866,0.000000000,-0.012470302,-0.055223308,0.000000000,-0.012470302,-0.138058271,0.000000000,0.000000000,-0.001533981,0.000000000,1697017233.404445648
1697017233.452765,-0.006235151,-0.006135923,0.000000000,0.497032107,1.560058459,0.000000000,-0.024940604,-0.006135923,0.000000000,1.502671391,-1.052310819,0.000000000,0.000000000,-0.010737866,0.000000000,-0.006235151,-0.055223308,0.000000000,0.000000000,-0.138058271,0.000000000,0.000000000,-0.001533981,0.000000000,1697017233.452468395
1697017233.500595,-0.018705453,-0.006135923,0.000000000,0.497032107,1.560058459,0.000000000,-0.024940604,-0.006135923,0.000000000,1.502671391,-1.052310819,0.000000000,0.000000000,-0.009203885,0.000000000,0.000000000,-0.055223308,0.000000000,-0.037410906,-0.139592252,0.000000000,0.000000000,-0.001533981,0.000000000,1697017233.500414371
1697017233.548824,-0.018705453,-0.006135923,0.000000000,0.497032107,1.560058459,0.000000000,0.000000000,-0.006135923,0.000000000,1.502671391,-1.052310819,0.000000000,0.000000000,-0.010737866,0.000000000,-0.012470302,-0.056757289,0.000000000,0.000000000,-0.139592252,0.000000000,0.000000000,0.000000000,0.000000000,1697017233.548466921
1697017233.596627,-0.012470302,-0.006135923,0.000000000,0.497032107,1.560058459,0.000000000,-0.024940604,-0.007669904,0.000000000,1.502671391,-1.052310819,0.000000000,0.000000000,-0.010737866,0.000000000,0.000000000,-0.056757289,0.000000000,-0.012470302,-0.141126232,0.000000000,0.000000000,-0.001533981,0.000000000,1697017233.596430063
1697017233.644685,0.000000000,-0.006135923,0.000000000,0.497032107,1.560058459,0.000000000,-0.018705453,-0.007669904,0.000000000,1.496436240,-1.052310819,0.000000000,0.000000000,-0.010737866,0.000000000,0.000000000,-0.056757289,0.000000000,-0.006235151,-0.141126232,0.000000000,0.000000000,0.000000000,0.000000000,1697017233.644417763
1697017233.692679,-0.018705453,-0.007669904,0.000000000,0.497032107,1.560058459,0.000000000,-0.006235151,-0.006135923,0.000000000,1.502671391,-1.052310819,0.000000000,0.000000000,-0.010737866,0.000000000,0.000000000,-0.056757289,0.000000000,-0.012470302,-0.142660213,0.000000000,0.000000000,0.000000000,0.000000000,1697017233.692466974
1697017233.740666,-0.012470302,-0.007669904,0.000000000,0.497032107,1.560058459,0.000000000,0.000000000,-0.007669904,0.000000000,1.502671391,-1.052310819,0.000000000,0.000000000,-0.010737866,0.000000000,0.006235151,-0.056757289,0.000000000,0.000000000,-0.142660213,0.000000000,0.000000000,0.000000000,0.000000000,1697017233.740436554
1697017233.788647,-0.024940604,-0.007669904,0.000000000,0.497032107,1.561592440,0.000000000,-0.006235151,-0.007669904,0.000000000,1.502671391,-1.052310819,0.000000000,0.000000000,-0.010737866,0.000000000,-0.012470302,-0.058291270,0.000000000,-0.024940604,-0.144194194,0.000000000,0.000000000,-0.001533981,0.000000000,1697017233.788413763
1697017233.836638,-0.018705453,-0.007669904,0.000000000,0.497032107,1.560058459,0.000000000,0.000000000,-0.007669904,0.000000000,1.502671391,-1.052310819,0.000000000,0.000000000,-0.010737866,0.000000000,0.000000000,-0.058291270,0.000000000,0.000000000,-0.144194194,0.000000000,0.000000000,-0.001533981,0.000000000,1697017233.836439848
1697017233.884702,-0.018705453,-0.007669904,0.000000000,0.497032107,1.560058459,0.000000000,0.000000000,-0.007669904,0.000000000,1.502671391,-1.052310819,0.000000000,0.000000000,-0.010737866,0.000000000,-0.006235151,-0.058291270,0.000000000,-0.037410906,-0.145728175,0.000000000,0.000000000,-0.001533981,0.000000000,1697017233.884466171
1697017233.932616,-0.024940604,-0.007669904,0.000000000,0.497032107,1.560058459,0.000000000,0.000000000,-0.007669904,0.000000000,1.502671391,-1.052310819,0.000000000,0.000000000,-0.010737866,0.000000000,0.000000000,-0.058291270,0.000000000,-0.012470302,-0.145728175,0.000000000,0.000000000,-0.001533981,0.000000000,1697017233.932393074
1697017233.980669,-0.018705453,-0.006135923,0.000000000,0.497032107,1.560058459,0.000000000,-0.006235151,-0.007669904,0.000000000,1.502671391,-1.052310819,0.000000000,0.000000000,-0.010737866,0.000000000,0.000000000,-0.059825251,0.000000000,-0.031175755,-0.147262155,0.000000000,0.000000000,-0.001533981,0.000000000,1697017233.980466366
1697017234.028719,-0.024940604,-0.007669904,0.000000000,0.497032107,1.560058459,0.000000000,-0.024940604,-0.007669904,0.000000000,1.502671391,-1.052310819,0.000000000,0.000000000,-0.010737866,0.000000000,-0.006235151,-0.059825251,0.000000000,0.000000000,-0.147262155,0.000000000,0.000000000,-0.001533981,0.000000000,1697017234.028482437
1697017234.076719,-0.012470302,-0.007669904,0.000000000,0.497032107,1.560058459,0.000000000,-0.031175755,-0.007669904,0.000000000,1.502671391,-1.052310819,0.000000000,0.000000000,-0.010737866,0.000000000,-0.006235151,-0.059825251,0.000000000,-0.012470302,-0.148796136,0.000000000,0.000000000,-0.001533981,0.000000000,1697017234.076535463
1697017234.124692,-0.006235151,-0.007669904,0.000000000,0.497032107,1.560058459,0.000000000,-0.018705453,-0.007669904,0.000000000,1.502671391,-1.052310819,0.000000000,0.000000000,-0.010737866,0.000000000,-0.006235151,-0.059825251,0.000000000,-0.006235151,-0.148796136,0.000000000,0.000000000,-0.001533981,0.000000000,1697017234.124490976
1697017234.172693,-0.018705453,-0.007669904,0.000000000,0.505456380,1.560058459,0.000000000,-0.006235151,-0.007669904,0.000000000,1.502671391,-1.052310819,0.000000000,0.000000000,-0.010737866,0.000000000,-0.006235151,-0.058291270,0.000000000,-0.031175755,-0.150330117,0.000000000,0.000000000,0.000000000,0.000000000,1697017234.172452211
1697017234.220651,-0.024940604,-0.006135923,0.000000000,0.505456380,1.560058459,0.000000000,-0.006235151,-0.007669904,0.000000000,1.502671391,-1.052310819,0.000000000,0.000000000,-0.010737866,0.000000000,-0.012470302,-0.061359231,0.000000000,-0.018705453,-0.150330117,0.000000000,0.000000000,-0.001533981,0.000000000,1697017234.220449209
1697017234.268667,-0.024940604,-0.007669904,0.000000000,0.497032107,1.560058459,0.000000000,0.000000000,-0.007669904,0.000000000,1.502671391,-1.052310819,0.000000000,0.000000000,-0.010737866,0.000000000,0.000000000,-0.061359231,0.000000000,-0.024940604,-0.151864098,0.000000000,0.000000000,-0.001533981,0.000000000,1697017234.268453121
1697017234.316655,-0.018705453,-0.007669904,0.000000000,0.488607834,1.560058459,0.000000000,-0.018705453,-0.007669904,0.000000000,1.496436240,-1.052310819,0.000000000,0.000000000,-0.010737866,0.000000000,-0.006235151,-0.061359231,0.000000000,0.000000000,-0.151864098,0.000000000,0.000000000,-0.001533981,0.000000000,1697017234.316428900
1697017234.364709,-0.012470302,-0.006135923,0.000000000,0.497032107,1.560058459,0.000000000,0.000000000,-0.007669904,0.000000000,1.508906542,-1.052310819,0.000000000,0.000000000,-0.010737866,0.000000000,-0.012470302,-0.061359231,0.000000000,-0.024940604,-0.153398079,0.000000000,0.000000000,0.000000000,0.000000000,1697017234.364445448
1697017234.412757,-0.018705453,-0.007669904,0.000000000,0.497032107,1.560058459,0.000000000,0.000000000,-0.007669904,0.000000000,1.502671391,-1.052310819,0.000000000,0.000000000,-0.010737866,0.000000000,0.000000000,-0.061359231,0.000000000,0.000000000,-0.151864098,0.000000000,0.000000000,-0.001533981,0.000000000,1697017234.412523985
1697017234.460690,-0.018705453,-0.007669904,0.000000000,0.497032107,1.560058459,0.000000000,0.000000000,-0.006135923,0.000000000,1.502671391,-1.052310819,0.000000000,0.000000000,-0.010737866,0.000000000,-0.006235151,-0.062893212,0.000000000,-0.031175755,-0.154932059,0.000000000,0.000000000,-0.001533981,0.000000000,1697017234.460438728
1697017234.508593,-0.006235151,-0.006135923,0.000000000,0.497032107,1.560058459,0.000000000,0.000000000,-0.006135923,0.000000000,1.502671391,-1.052310819,0.000000000,0.000000000,-0.010737866,0.000000000,-0.006235151,-0.062893212,0.000000000,-0.006235151,-0.153398079,0.000000000,0.000000000,-0.001533981,0.000000000,1697017234.508421421
1697017234.556792,-0.012470302,-0.007669904,0.000000000,0.497032107,1.560058459,0.000000000,-0.006235151,-0.007669904,0.000000000,1.502671391,-1.052310819,0.000000000,0.000000000,-0.010737866,0.000000000,-0.006235151,-0.062893212,0.000000000,-0.037410906,-0.156466040,0.000000000,0.000000000,-0.001533981,0.000000000,1697017234.556542635
1697017234.604699,-0.012470302,-0.007669904,0.000000000,0.497032107,1.560058459,0.000000000,-0.024940604,-0.007669904,0.000000000,1.502671391,-1.052310819,0.000000000,0.000000000,-0.010737866,0.000000000,-0.006235151,-0.062893212,0.000000000,0.000000000,-0.154932059,0.000000000,0.000000000,0.000000000,0.000000000,1697017234.604434490
1697017234.652635,-0.018705453,-0.007669904,0.000000000,0.497032107,1.560058459,0.000000000,0.000000000,-0.007669904,0.000000000,1.502671391,-1.052310819,0.000000000,0.000000000,-0.010737866,0.000000000,0.000000000,-0.062893212,0.000000000,-0.018705453,-0.158000021,0.000000000,0.000000000,-0.001533981,0.000000000,1697017234.652466774
1697017234.700561,-0.012470302,-0.007669904,0.000000000,0.497032107,1.560058459,0.000000000,-0.006235151,-0.007669904,0.000000000,1.502671391,-1.052310819,0.000000000,0.000000000,-0.010737866,0.000000000,0.000000000,-0.064427193,0.000000000,-0.018705453,-0.158000021,0.000000000,0.000000000,-0.001533981,0.000000000,1697017234.700386286
1697017234.748519,-0.006235151,-0.007669904,0.000000000,0.497032107,1.560058459,0.000000000,0.000000000,-0.006135923,0.000000000,1.502671391,-1.052310819,0.000000000,0.000000000,-0.010737866,0.000000000,0.000000000,-0.064427193,0.000000000,-0.012470302,-0.158000021,0.000000000,0.000000000,-0.001533981,0.000000000,1697017234.748353720
1697017234.796462,-0.012470302,-0.007669904,0.000000000,0.497032107,1.560058459,0.000000000,-0.006235151,-0.007669904,0.000000000,1.502671391,-1.052310819,0.000000000,0.000000000,-0.010737866,0.000000000,-0.006235151,-0.064427193,0.000000000,-0.018705453,-0.159534002,0.000000000,0.000000000,0.000000000,0.000000000,1697017234.796293974
1697017234.844456,-0.006235151,-0.007669904,0.000000000,0.497032107,1.560058459,0.000000000,0.000000000,-0.007669904,0.000000000,1.502671391,-1.052310819,0.000000000,0.000000000,-0.010737866,0.000000000,0.006235151,-0.064427193,0.000000000,0.000000000,-0.159534002,0.000000000,0.000000000,-0.001533981,0.000000000,1697017234.844264746
1697017234.892578,-0.012470302,-0.007669904,0.000000000,0.505456380,1.560058459,0.000000000,0.000000000,-0.007669904,0.000000000,1.496436240,-1.052310819,0.000000000,0.000000000,-0.010737866,0.000000000,0.000000000,-0.065961174,0.000000000,-0.037410906,-0.159534002,0.000000000,0.000000000,-0.001533981,0.000000000,1697017234.892323971
1697017234.940557,-0.018705453,-0.007669904,0.000000000,0.497032107,1.560058459,0.000000000,-0.006235151,-0.007669904,0.000000000,1.502671391,-1.052310819,0.000000000,0.000000000,-0.010737866,0.000000000,-0.006235151,-0.065961174,0.000000000,-0.018705453,-0.161067983,0.000000000,0.000000000,0.000000000,0.000000000,1697017234.940275908
1697017234.988533,-0.012470302,-0.007669904,0.000000000,0.497032107,1.560058459,0.000000000,0.000000000,-0.007669904,0.000000000,1.502671391,-1.052310819,0.000000000,0.000000000,-0.010737866,0.000000000,0.000000000,-0.065961174,0.000000000,-0.031175755,-0.162601963,0.000000000,0.000000000,-0.001533981,0.000000000,1697017234.988273859
1697017235.036592,-0.018705453,-0.007669904,0.000000000,0.497032107,1.560058459,0.000000000,0.000000000,-0.007669904,0.000000000,1.496436240,-1.052310819,0.000000000,0.000000000,-0.010737866,0.000000000,0.000000000,-0.065961174,0.000000000,0.000000000,-0.162601963,0.000000000,0.000000000,-0.001533981,0.000000000,1697017235.036341906
1697017235.084624,-0.006235151,-0.007669904,0.000000000,0.497032107,1.560058459,0.000000000,-0.012470302,-0.007669904,0.000000000,1.502671391,-1.052310819,0.000000000,0.000000000,-0.010737866,0.000000000,-0.006235151,-0.065961174,0.000000000,-0.018705453,-0.164135944,0.000000000,0.000000000,-0.001533981,0.000000000,1697017235.084369421
1697017235.132662,-0.018705453,-0.007669904,0.000000000,0.497032107,1.560058459,0.000000000,-0.018705453,-0.006135923,0.000000000,1.502671391,-1.052310819,0.000000000,0.000000000,-0.010737866,0.000000000,0.000000000,-0.065961174,0.000000000,-0.012470302,-0.162601963,0.000000000,0.000000000,-0.001533981,0.000000000,1697017235.132406235
1697017235.180501,-0.012470302,-0.007669904,0.000000000,0.497032107,1.560058459,0.000000000,-0.024940604,-0.007669904,0.000000000,1.502671391,-1.052310819,0.000000000,0.000000000,-0.010737866,0.000000000,-0.012470302,-0.067495155,0.000000000,-0.024940604,-0.165669925,0.000000000,0.000000000,0.000000000,0.000000000,1697017235.180361032
1697017235.228566,-0.006235151,-0.007669904,0.000000000,0.497032107,1.560058459,0.000000000,-0.024940604,-0.007669904,0.000000000,1.502671391,-1.052310819,0.000000000,0.000000000,-0.010737866,0.000000000,0.000000000,-0.067495155,0.000000000,-0.012470302,-0.165669925,0.000000000,0.000000000,-0.001533981,0.000000000,1697017235.228345156
1697017235.276562,-0.024940604,-0.007669904,0.000000000,0.497032107,1.560058459,0.000000000,0.000000000,-0.007669904,0.000000000,1.502671391,-1.052310819,0.000000000,0.000000000,-0.010737866,0.000000000,0.000000000,-0.067495155,0.000000000,-0.018705453,-0.165669925,0.000000000,0.000000000,-0.001533981,0.000000000,1697017235.276317596
1697017235.324614,-0.006235151,-0.007669904,0.000000000,0.497032107,1.560058459,0.000000000,0.000000000,-0.007669904,0.000000000,1.502671391,-1.052310819,0.000000000,0.000000000,-0.009203885,0.000000000,0.000000000,-0.067495155,0.000000000,-0.024940604,-0.165669925,0.000000000,0.000000000,-0.001533981,0.000000000,1697017235.324340105
1697017235.372591,-0.018705453,-0.007669904,0.000000000,0.480183561,1.560058459,0.000000000,-0.031175755,-0.007669904,0.000000000,1.502671391,-1.052310819,0.000000000,0.000000000,-0.010737866,0.000000000,-0.006235151,-0.069029135,0.000000000,-0.031175755,-0.168737886,0.000000000,0.000000000,-0.001533981,0.000000000,1697017235.372359753
1697017235.420646,-0.018705453,-0.006135923,0.000000000,0.505456380,1.560058459,0.000000000,-0.018705453,-0.007669904,0.000000000,1.502671391,-1.052310819,0.000000000,0.000000000,-0.010737866,0.000000000,0.000000000,-0.069029135,0.000000000,0.000000000,-0.167203906,0.000000000,0.000000000,-0.001533981,0.000000000,1697017235.420351744
1697017235.468723,-0.006235151,-0.007669904,0.000000000,0.505456380,1.560058459,0.000000000,-0.006235151,-0.006135923,0.000000000,1.502671391,-1.052310819,0.000000000,0.000000000,-0.010737866,0.000000000,0.000000000,-0.069029135,0.000000000,-0.018705453,-0.170271867,0.000000000,0.000000000,-0.001533981,0.000000000,1697017235.468375206
1697017235.516659,-0.018705453,-0.007669904,0.000000000,0.497032107,1.560058459,0.000000000,0.000000000,-0.007669904,0.000000000,1.502671391,-1.052310819,0.000000000,0.000000000,-0.010737866,0.000000000,-0.006235151,-0.070563116,0.000000000,-0.043646057,-0.170271867,0.000000000,0.000000000,-0.001533981,0.000000000,1697017235.516418934
1697017235.564642,-0.006235151,-0.007669904,0.000000000,0.497032107,1.560058459,0.000000000,-0.006235151,-0.007669904,0.000000000,1.496436240,-1.052310819,0.000000000,0.000000000,-0.010737866,0.000000000,0.000000000,-0.069029135,0.000000000,0.000000000,-0.168737886,0.000000000,0.000000000,-0.001533981,0.000000000,1697017235.564357042
1697017235.612618,-0.006235151,-0.007669904,0.000000000,0.497032107,1.560058459,0.000000000,0.000000000,-0.006135923,0.000000000,1.502671391,-1.052310819,0.000000000,0.000000000,-0.010737866,0.000000000,-0.006235151,-0.070563116,0.000000000,-0.024940604,-0.171805848,0.000000000,0.000000000,-0.001533981,0.000000000,1697017235.612288952
1697017235.660677,-0.012470302,-0.007669904,0.000000000,0.497032107,1.561592440,0.000000000,-0.006235151,-0.007669904,0.000000000,1.502671391,-1.052310819,0.000000000,0.000000000,-0.010737866,0.000000000,0.000000000,-0.070563116,0.000000000,0.000000000,-0.171805848,0.000000000,0.000000000,-0.001533981,0.000000000,1697017235.660418510
1697017235.708610,-0.006235151,-0.007669904,0.000000000,0.497032107,1.560058459,0.000000000,-0.012470302,-0.007669904,0.000000000,1.502671391,-1.052310819,0.000000000,0.000000000,-0.010737866,0.000000000,-0.006235151,-0.070563116,0.000000000,-0.031175755,-0.173339829,0.000000000,0.000000000,-0.001533981,0.000000000,1697017235.708364964
1697017235.756633,0.000000000,-0.006135923,0.000000000,0.497032107,1.560058459,0.000000000,-0.018705453,-0.007669904,0.000000000,1.502671391,-1.052310819,0.000000000,0.000000000,-0.010737866,0.000000000,0.000000000,-0.070563116,0.000000000,0.000000000,-0.173339829,0.000000000,0.000000000,0.000000000,0.000000000,1697017235.756369114
1697017235.804555,-0.018705453,-0.007669904,0.000000000,0.497032107,1.560058459,0.000000000,-0.018705453,-0.007669904,0.000000000,1.502671391,-1.052310819,0.000000000,0.000000000,-0.010737866,0.000000000,-0.006235151,-0.070563116,0.000000000,-0.031175755,-0.174873810,0.000000000,0.000000000,-0.001533981,0.000000000,1697017235.804314137
1697017235.852728,-0.006235151,-0.009203885,0.000000000,0.497032107,1.560058459,0.000000000,-0.006235151,-0.007669904,0.000000000,1.502671391,-1.052310819,0.000000000,0.000000000,-0.010737866,0.000000000,-0.006235151,-0.072097097,0.000000000,-0.018705453,-0.174873810,0.000000000,0.000000000,-0.001533981,0.000000000,1697017235.852391958
1697017235.900544,-0.012470302,-0.009203885,0.000000000,0.497032107,1.560058459,0.000000000,-0.006235151,-0.007669904,0.000000000,1.533847146,-1.052310819,0.000000000,0.000000000,-0.010737866,0.000000000,-0.018705453,-0.072097097,0.000000000,-0.018705453,-0.176407790,0.000000000,0.000000000,-0.001533981,0.000000000,1697017235.900254250
1697017235.948567,-0.012470302,-0.009203885,0.000000000,0.497032107,1.560058459,0.000000000,-0.006235151,-0.009203885,0.000000000,1.533847146,-1.052310819,0.000000000,0.000000000,-0.010737866,0.000000000,0.000000000,-0.072097097,0.000000000,-0.031175755,-0.176407790,0.000000000,0.000000000,-0.001533981,0.000000000,1697017235.948249340
1697017235.996446,-0.012470302,-0.009203885,0.000000000,0.497032107,1.560058459,0.000000000,-0.006235151,-0.007669904,0.000000000,1.533847146,-1.052310819,0.000000000,0.000000000,-0.010737866,0.000000000,0.000000000,-0.072097097,0.000000000,-0.012470302,-0.176407790,0.000000000,0.000000000,-0.001533981,0.000000000,1697017235.996243715
1697017236.044645,-0.012470302,-0.009203885,0.000000000,0.497032107,1.560058459,0.000000000,-0.006235151,-0.007669904,0.000000000,1.533847146,-1.052310819,0.000000000,0.000000000,-0.010737866,0.000000000,0.012470302,-0.072097097,0.000000000,-0.024940604,-0.177941771,0.000000000,0.000000000,-0.001533981,0.000000000,1697017236.044379711
1697017236.092600,-0.018705453,-0.009203885,0.000000000,0.497032107,1.560058459,0.000000000,-0.006235151,-0.007669904,0.000000000,1.533847146,-1.052310819,0.000000000,0.000000000,-0.010737866,0.000000000,0.000000000,-0.073631078,0.000000000,-0.006235151,-0.176407790,0.000000000,0.000000000,-0.001533981,0.000000000,1697017236.092315674
1697017236.140561,-0.006235151,-0.009203885,0.000000000,0.505456380,1.560058459,0.000000000,-0.006235151,-0.007669904,0.000000000,1.533847146,-1.052310819,0.000000000,0.000000000,-0.010737866,0.000000000,-0.006235151,-0.073631078,0.000000000,-0.012470302,-0.179475752,0.000000000,0.000000000,-0.001533981,0.000000000,1697017236.140355825
1697017236.188661,-0.006235151,-0.009203885,0.000000000,0.505456380,1.560058459,0.000000000,-0.006235151,-0.007669904,0.000000000,1.533847146,-1.052310819,0.000000000,0.000000000,-0.010737866,0.000000000,-0.006235151,-0.073631078,0.000000000,0.000000000,-0.179475752,0.000000000,0.000000000,-0.001533981,0.000000000,1697017236.188365698
1697017236.236428,-0.006235151,-0.009203885,0.000000000,0.505456380,1.560058459,0.000000000,-0.006235151,-0.007669904,0.000000000,1.533847146,-1.052310819,0.000000000,0.000000000,-0.010737866,0.000000000,-0.006235151,-0.073631078,0.000000000,-0.031175755,-0.179475752,0.000000000,0.000000000,-0.001533981,0.000000000,1697017236.236254454
1697017236.284647,-0.012470302,-0.009203885,0.000000000,0.505456380,1.560058459,0.000000000,-0.006235151,-0.007669904,0.000000000,1.533847146,-1.052310819,0.000000000,0.000000000,-0.010737866,0.000000000,0.000000000,-0.073631078,0.000000000,-0.043646057,-0.181009733,0.000000000,0.000000000,-0.001533981,0.000000000,1697017236.284340620
1697017236.332608,-0.018705453,-0.009203885,0.000000000,0.497032107,1.560058459,0.000000000,-0.006235151,-0.007669904,0.000000000,1.533847146,-1.052310819,0.000000000,0.000000000,-0.010737866,0.000000000,0.000000000,-0.075165059,0.000000000,0.000000000,-0.181009733,0.000000000,0.000000000,-0.001533981,0.000000000,1697017236.332363367
1697017236.380678,-0.018705453,-0.009203885,0.000000000,0.497032107,1.560058459,0.000000000,0.000000000,-0.007669904,0.000000000,1.533847146,-1.052310819,0.000000000,0.000000000,-0.010737866,0.000000000,-0.006235151,-0.075165059,0.000000000,-0.018705453,-0.181009733,0.000000000,0.000000000,-0.001533981,0.000000000,1697017236.380328655
1697017236.428680,-0.006235151,-0.009203885,0.000000000,0.497032107,1.560058459,0.000000000,0.000000000,-0.007669904,0.000000000,1.533847146,-1.052310819,0.000000000,0.000000000,-0.010737866,0.000000000,-0.006235151,-0.075165059,0.000000000,-0.031175755,-0.182543714,0.000000000,0.000000000,0.000000000,0.000000000,1697017236.428310871
1697017236.476562,-0.012470302,-0.009203885,0.000000000,0.488607834,1.560058459,0.000000000,0.000000000,-0.007669904,0.000000000,1.533847146,-1.052310819,0.000000000,0.000000000,-0.010737866,0.000000000,-0.012470302,-0.075165059,0.000000000,-0.012470302,-0.184077694,0.000000000,0.000000000,-0.001533981,0.000000000,1697017236.476320982
1697017236.524492,-0.006235151,-0.009203885,0.000000000,0.497032107,1.560058459,0.000000000,0.000000000,-0.007669904,0.000000000,1.533847146,-1.052310819,0.000000000,0.000000000,-0.010737866,0.000000000,0.000000000,-0.075165059,0.000000000,-0.018705453,-0.182543714,0.000000000,0.000000000,0.000000000,0.000000000,1697017236.524270535
1697017236.572525,-0.018705453,-0.007669904,0.000000000,0.497032107,1.560058459,0.000000000,-0.006235151,-0.007669904,0.000000000,1.527611995,-1.052310819,0.000000000,0.000000000,-0.010737866,0.000000000,0.000000000,-0.075165059,0.000000000,0.000000000,-0.184077694,0.000000000,0.000000000,-0.001533981,0.000000000,1697017236.572287083
1697017236.620610,-0.024940604,-0.009203885,0.000000000,0.488607834,1.560058459,0.000000000,-0.006235151,-0.007669904,0.000000000,1.533847146,-1.052310819,0.000000000,0.000000000,-0.010737866,0.000000000,-0.006235151,-0.076699039,0.000000000,-0.018705453,-0.184077694,0.000000000,0.000000000,-0.001533981,0.000000000,1697017236.620375633
1697017236.668505,-0.006235151,-0.009203885,0.000000000,0.488607834,1.560058459,0.000000000,-0.006235151,-0.007669904,0.000000000,1.533847146,-1.052310819,0.000000000,0.000000000,-0.010737866,0.000000000,0.000000000,-0.076699039,0.000000000,-0.006235151,-0.185611675,0.000000000,0.000000000,-0.001533981,0.000000000,1697017236.668275595
